[
  {"id":"ky-ballard-wma","name":"Ballard Wildlife Management Area","state":"KY","type":"Wildlife Management Area","manager":"Kentucky Fish & Wildlife","county":["Ballard"],"latitude":37.06,"longitude":-89.01,"source":"KDFWR"},
  {"id":"ky-big-rivers-wma","name":"Big Rivers Wildlife Management Area & State Forest","state":"KY","type":"Wildlife Management Area","manager":"Kentucky Fish & Wildlife","county":["Crittenden","McCracken","Livingston"],"latitude":37.03,"longitude":-88.37,"source":"KDFWR"},
  {"id":"ky-boatwright-wma","name":"Boatwright Wildlife Management Area","state":"KY","type":"Wildlife Management Area","manager":"Kentucky Fish & Wildlife","county":["Ballard"],"latitude":37.11,"longitude":-89.04,"source":"KDFWR"},
  {"id":"ky-doug-travis-wma","name":"Doug Travis Wildlife Management Area","state":"KY","type":"Wildlife Management Area","manager":"Kentucky Fish & Wildlife","county":["Carlisle"],"latitude":36.87,"longitude":-88.99,"source":"KDFWR"},
  {"id":"ky-lake-barkley-wma","name":"Lake Barkley Wildlife Management Area","state":"KY","type":"Wildlife Management Area","manager":"Kentucky Fish & Wildlife","county":["Trigg","Lyon"],"latitude":36.85,"longitude":-87.98,"source":"KDFWR"},
  {"id":"ky-livingston-county-wma","name":"Livingston County Wildlife Management Area","state":"KY","type":"Wildlife Management Area","manager":"Kentucky Fish & Wildlife","county":["Livingston"],"latitude":37.22,"longitude":-88.39,"source":"KDFWR"},
  {"id":"ky-tradewater-wma","name":"Tradewater Wildlife Management Area","state":"KY","type":"Wildlife Management Area","manager":"Kentucky Fish & Wildlife","county":["Hopkins"],"latitude":37.35,"longitude":-87.55,"source":"KDFWR"},
  {"id":"ky-west-ky-wma","name":"West Kentucky Wildlife Management Area","state":"KY","type":"Wildlife Management Area","manager":"Kentucky Fish & Wildlife","county":["Caldwell","Crittenden"],"latitude":37.39,"longitude":-88.01,"source":"KDFWR"},
  {"id":"ky-barren-river-lake-wma","name":"Barren River Lake Wildlife Management Area","state":"KY","type":"Wildlife Management Area","manager":"Kentucky Fish & Wildlife","county":["Allen","Barren"],"latitude":36.94,"longitude":-86.19,"source":"KDFWR"},
  {"id":"ky-higginson-henry-wma","name":"Higginson-Henry Wildlife Management Area","state":"KY","type":"Wildlife Management Area","manager":"Kentucky Fish & Wildlife","county":["Ohio"],"latitude":37.46,"longitude":-86.95,"source":"KDFWR"},
  {"id":"ky-marrowbone-wma","name":"Marrowbone State Forest & Wildlife Management Area","state":"KY","type":"Wildlife Management Area","manager":"Kentucky Fish & Wildlife","county":["Cumberland"],"latitude":36.79,"longitude":-85.42,"source":"KDFWR"},
  {"id":"ky-nolin-river-lake-wma","name":"Nolin River Lake Wildlife Management Area","state":"KY","type":"Wildlife Management Area","manager":"Kentucky Fish & Wildlife","county":["Hardin","Edmonson"],"latitude":37.27,"longitude":-86.17,"source":"KDFWR"},
  {"id":"ky-otter-creek-wma","name":"Otter Creek Outdoor Recreation Area","state":"KY","type":"Wildlife Management Area","manager":"Kentucky Fish & Wildlife","county":["Meade"],"latitude":38.03,"longitude":-85.70,"source":"KDFWR"},
  {"id":"ky-peabody-wma","name":"Peabody Wildlife Management Area","state":"KY","type":"Wildlife Management Area","manager":"Kentucky Fish & Wildlife","county":["Webster","Ohio","Muhlenberg"],"latitude":37.47,"longitude":-87.67,"source":"KDFWR"},
  {"id":"ky-yellowbank-wma","name":"Yellowbank Wildlife Management Area","state":"KY","type":"Wildlife Management Area","manager":"Kentucky Fish & Wildlife","county":["Breckinridge"],"latitude":37.83,"longitude":-86.40,"source":"KDFWR"},
  {"id":"ky-curtis-gates-lloyd-wma","name":"Curtis Gates Lloyd Wildlife Management Area","state":"KY","type":"Wildlife Management Area","manager":"Kentucky Fish & Wildlife","county":["Nicholas"],"latitude":38.36,"longitude":-84.05,"source":"KDFWR"},
  {"id":"ky-decker-wma","name":"Decker Wildlife Management Area","state":"KY","type":"Wildlife Management Area","manager":"Kentucky Fish & Wildlife","county":["Mason"],"latitude":38.63,"longitude":-83.85,"source":"KDFWR"},
  {"id":"ky-dr-james-rich-wma","name":"Dr. James R. Rich Wildlife Management Area","state":"KY","type":"Wildlife Management Area","manager":"Kentucky Fish & Wildlife","county":["Kenton"],"latitude":38.95,"longitude":-84.54,"source":"KDFWR"},
  {"id":"ky-john-a-kleber-wma","name":"John A. Kleber Wildlife Management Area","state":"KY","type":"Wildlife Management Area","manager":"Kentucky Fish & Wildlife","county":["Union"],"latitude":37.70,"longitude":-87.92,"source":"KDFWR"},
  {"id":"ky-kentucky-river-wma","name":"Kentucky River Wildlife Management Area","state":"KY","type":"Wildlife Management Area","manager":"Kentucky Fish & Wildlife","county":["Henry","Owen"],"latitude":38.52,"longitude":-84.93,"source":"KDFWR"},
  {"id":"ky-knobs-wma","name":"Knobs State Forest & Wildlife Management Area","state":"KY","type":"Wildlife Management Area","manager":"Kentucky Fish & Wildlife","county":["Bullitt"],"latitude":38.10,"longitude":-85.69,"source":"KDFWR"},
  {"id":"ky-taylorsville-lake-wma","name":"Taylorsville Lake Wildlife Management Area","state":"KY","type":"Wildlife Management Area","manager":"Kentucky Fish & Wildlife","county":["Spencer","Shelby"],"latitude":38.05,"longitude":-85.36,"source":"KDFWR"},
  {"id":"ky-clay-wma","name":"Clay Wildlife Management Area","state":"KY","type":"Wildlife Management Area","manager":"Kentucky Fish & Wildlife","county":["Clay"],"latitude":37.22,"longitude":-83.68,"source":"KDFWR"},
  {"id":"ky-dewey-lake-wma","name":"Dewey Lake Wildlife Management Area","state":"KY","type":"Wildlife Management Area","manager":"Kentucky Fish & Wildlife","county":["Floyd"],"latitude":37.74,"longitude":-82.75,"source":"KDFWR"},
  {"id":"ky-fishtrap-lake-wma","name":"Fishtrap Lake Wildlife Management Area","state":"KY","type":"Wildlife Management Area","manager":"Kentucky Fish & Wildlife","county":["Pike"],"latitude":37.45,"longitude":-82.25,"source":"KDFWR"},
  {"id":"ky-grayson-lake-wma","name":"Grayson Lake Wildlife Management Area","state":"KY","type":"Wildlife Management Area","manager":"Kentucky Fish & Wildlife","county":["Carter","Elliott"],"latitude":38.22,"longitude":-83.09,"source":"KDFWR"},
  {"id":"ky-paintsville-lake-wma","name":"Paintsville Lake Wildlife Management Area","state":"KY","type":"Wildlife Management Area","manager":"Kentucky Fish & Wildlife","county":["Johnson"],"latitude":37.85,"longitude":-82.88,"source":"KDFWR"},
  {"id":"ky-beaver-creek-wma","name":"Beaver Creek Wildlife Management Area","state":"KY","type":"Wildlife Management Area","manager":"Kentucky Fish & Wildlife","county":["McCreary"],"latitude":36.75,"longitude":-84.47,"source":"KDFWR"},
  {"id":"ky-cane-creek-wma","name":"Cane Creek Wildlife Management Area","state":"KY","type":"Wildlife Management Area","manager":"Kentucky Fish & Wildlife","county":["Bell"],"latitude":36.84,"longitude":-83.72,"source":"KDFWR"},
  {"id":"ky-dix-river-wma","name":"Dix River Wildlife Management Area","state":"KY","type":"Wildlife Management Area","manager":"Kentucky Fish & Wildlife","county":["Garrard"],"latitude":37.72,"longitude":-84.62,"source":"KDFWR"},
  {"id":"ky-hensley-pine-mountain-wma","name":"Hensleyâ€“Pine Mountain Wildlife Management Area","state":"KY","type":"Wildlife Management Area","manager":"Kentucky Fish & Wildlife","county":["Letcher","Harlan"],"latitude":36.94,"longitude":-83.03,"source":"KDFWR"},
  {"id":"ky-lake-cumberland-wma","name":"Lake Cumberland Wildlife Management Area","state":"KY","type":"Wildlife Management Area","manager":"Kentucky Fish & Wildlife","county":["Russell","Wayne"],"latitude":36.93,"longitude":-85.05,"source":"KDFWR"},
  {"id":"ky-mill-creek-wma","name":"Mill Creek Wildlife Management Area","state":"KY","type":"Wildlife Management Area","manager":"Kentucky Fish & Wildlife","county":["Hardin"],"latitude":37.71,"longitude":-85.88,"source":"KDFWR"}
]
